{
"type": "FeatureCollection",
"name": "brampton_facilities",
"crs": { "type": "name", "properties": { "name": "urn:ogc:def:crs:OGC:1.3:CRS84" } },
"features": [
{ "type": "Feature", "properties": { "_source_layer": "Recreation Centre", "name": "GORE MEADOWS COMMUNITY CENTRE", "address": "10150 THE GORE RD", "type": "RECREATION CENTRE", "website": "http://www.brampton.ca/EN/residents/Recreation/Community-Centres/Pages/Gore-Meadows.aspx", "role": "cooling_and_warming_centre" }, "geometry": { "type": "Point", "coordinates": [ -79.6949611700405, 43.794543895275503 ] } },
{ "type": "Feature", "properties": { "_source_layer": "Recreation Centre", "name": "CASSIE CAMPBELL COMMUNITY CENTRE", "address": "1050 SANDALWOOD PKY W", "type": "RECREATION CENTRE", "website": "http://www.brampton.ca/EN/residents/Recreation/Community-Centres/Pages/Cassie-Campbell.aspx", "role": "cooling_and_warming_centre" }, "geometry": { "type": "Point", "coordinates": [ -79.824534478111502, 43.696975216194303 ] } },
{ "type": "Feature", "properties": { "_source_layer": "Recreation Centre", "name": "GREENBRIAR RECREATION CENTRE", "address": "1100 CENTRAL PARK DR", "type": "RECREATION CENTRE", "website": "http://www.brampton.ca/EN/residents/Recreation/Community-Centres/Pages/Greenbriar.aspx", "role": "cooling_and_warming_centre" }, "geometry": { "type": "Point", "coordinates": [ -79.717236924234598, 43.735993942415902 ] } },
{ "type": "Feature", "properties": { "_source_layer": "Recreation Centre", "name": "SNELGROVE COMMUNITY CENTRE", "address": "11692 HURONTARIO ST", "type": "COMMUNITY CENTRE", "website": "http://www.brampton.ca/EN/residents/Recreation/Community-Centres", "role": "cooling_and_warming_centre" }, "geometry": { "type": "Point", "coordinates": [ -79.822685900632194, 43.730908563780197 ] } },
{ "type": "Feature", "properties": { "_source_layer": "Recreation Centre", "name": "CHRIS GIBSON RECREATION CENTRE", "address": "125 MCLAUGHLIN RD N", "type": "RECREATION CENTRE", "website": "http://www.brampton.ca/EN/residents/Recreation/Community-Centres/Pages/Chris-Gibson.aspx", "role": "cooling_and_warming_centre" }, "geometry": { "type": "Point", "coordinates": [ -79.776155425169094, 43.681413695807599 ] } },
{ "type": "Feature", "properties": { "_source_layer": "Recreation Centre", "name": "TERRY MILLER RECREATION CENTRE", "address": "1295 WILLIAMS PKY", "type": "RECREATION CENTRE", "website": "http://www.brampton.ca/EN/residents/Recreation/Community-Centres/Pages/Terry-Miller.aspx", "role": "cooling_and_warming_centre" }, "geometry": { "type": "Point", "coordinates": [ -79.731180146773198, 43.731803274895299 ] } },
{ "type": "Feature", "properties": { "_source_layer": "Recreation Centre", "name": "BRAMPTON SOCCER CENTRE", "address": "1495 SANDALWOOD PKY E", "type": "RECREATION CENTRE", "website": "http://www.brampton.ca/EN/residents/Recreation/Community-Centres/Pages/Brampton-Soccer-Centre.aspx", "role": "cooling_and_warming_centre" }, "geometry": { "type": "Point", "coordinates": [ -79.769040943902993, 43.743711980815803 ] } },
{ "type": "Feature", "properties": { "_source_layer": "Recreation Centre", "name": "HOWDEN RECREATION CENTRE", "address": "150 HOWDEN BLVD", "type": "RECREATION CENTRE", "website": "http://www.brampton.ca/EN/residents/Recreation/Community-Centres/Pages/Howden.aspx", "role": "cooling_and_warming_centre" }, "geometry": { "type": "Point", "coordinates": [ -79.728433403822706, 43.721300509635199 ] } },
{ "type": "Feature", "properties": { "_source_layer": "Recreation Centre", "name": "PROFESSOR'S LAKE RECREATION CENTRE", "address": "1660 NORTH PARK DR", "type": "RECREATION CENTRE", "website": "http://www.brampton.ca/EN/residents/Recreation/Community-Centres/Pages/Professors-Lake.aspx", "role": "cooling_and_warming_centre" }, "geometry": { "type": "Point", "coordinates": [ -79.733129595940994, 43.746538702385401 ] } },
{ "type": "Feature", "properties": { "_source_layer": "Recreation Centre", "name": "BALMORAL RECREATION CENTRE", "address": "225 BALMORAL DR", "type": "RECREATION CENTRE", "website": "http://www.brampton.ca/EN/residents/Recreation/Programs-Activities/Pages/Outdoor-Skating.aspxhttps://www.brampton.ca/EN/residents/Recreation/Community-Centres/Pages/Balmoral.aspx", "role": "cooling_and_warming_centre" }, "geometry": { "type": "Point", "coordinates": [ -79.713131664531204, 43.707256652883103 ] } },
{ "type": "Feature", "properties": { "_source_layer": "Recreation Centre", "name": "HUTTONVILLE COMMUNITY CENTRE", "address": "2322 EMBLETON RD", "type": "RECREATION CENTRE", "website": "http://www.brampton.ca/EN/residents/Recreation/Community-Centres", "role": "cooling_and_warming_centre" }, "geometry": { "type": "Point", "coordinates": [ -79.809374826990407, 43.641389741510999 ] } },
{ "type": "Feature", "properties": { "_source_layer": "Recreation Centre", "name": "CENTRAL PUBLIC SCHOOL RECREATION AND ARTS CENTRE", "address": "24 ALEXANDER ST", "type": "RECREATION CENTRE", "website": "http://www.brampton.ca/EN/residents/Recreation/Community-Centres/Pages/Central-Public-School.aspx", "role": "cooling_and_warming_centre" }, "geometry": { "type": "Point", "coordinates": [ -79.763110202874699, 43.690289360384398 ] } },
{ "type": "Feature", "properties": { "_source_layer": "Recreation Centre", "name": "JIM ARCHDEKIN RECREATION CENTRE", "address": "292 CONESTOGA DR", "type": "RECREATION CENTRE", "website": "http://www.brampton.ca/EN/residents/Recreation/Community-Centres/Pages/Jim-Archdekin.aspx", "role": "cooling_and_warming_centre" }, "geometry": { "type": "Point", "coordinates": [ -79.789576470187995, 43.717372496300897 ] } },
{ "type": "Feature", "properties": { "_source_layer": "Recreation Centre", "name": "LOAFER'S LAKE RECREATION CENTRE", "address": "30 LOAFERS LAKE LANE", "type": "RECREATION CENTRE", "website": "http://www.brampton.ca/EN/residents/Recreation/Community-Centres/Pages/Loafers-Lake.aspx", "role": "cooling_and_warming_centre" }, "geometry": { "type": "Point", "coordinates": [ -79.800911848177705, 43.724846956449497 ] } },
{ "type": "Feature", "properties": { "_source_layer": "Recreation Centre", "name": "CENTURY GARDENS RECREATION CENTRE", "address": "340 VODDEN ST E", "type": "RECREATION CENTRE", "website": "http://www.brampton.ca/EN/residents/Recreation/Community-Centres/Pages/Century-Gardens.aspx", "role": "cooling_and_warming_centre" }, "geometry": { "type": "Point", "coordinates": [ -79.753954833198193, 43.708541317186999 ] } },
{ "type": "Feature", "properties": { "_source_layer": "Recreation Centre", "name": "KEN GILES RECREATION CENTRE", "address": "370 BARTLEY BULL PKY", "type": "RECREATION CENTRE", "website": "http://www.brampton.ca/EN/residents/Recreation/Community-Centres/Pages/Ken-Giles.aspx", "role": "cooling_and_warming_centre" }, "geometry": { "type": "Point", "coordinates": [ -79.726335767383503, 43.677229442496298 ] } },
{ "type": "Feature", "properties": { "_source_layer": "Recreation Centre", "name": "EARNSCLIFFE RECREATION CENTRE", "address": "44 EASTBOURNE DR", "type": "RECREATION CENTRE", "website": "http://www.brampton.ca/EN/residents/Recreation/Community-Centres/Pages/Earnscliffe.aspx", "role": "cooling_and_warming_centre" }, "geometry": { "type": "Point", "coordinates": [ -79.699336443772907, 43.723662429799397 ] } },
{ "type": "Feature", "properties": { "_source_layer": "Recreation Centre", "name": "EBENEZER COMMUNITY CENTRE", "address": "4494 EBENEZER RD", "type": "COMMUNITY CENTRE", "website": "http://www.brampton.ca/EN/residents/Recreation/Community-Centres", "role": "cooling_and_warming_centre" }, "geometry": { "type": "Point", "coordinates": [ -79.663798425988801, 43.772079718628902 ] } },
{ "type": "Feature", "properties": { "_source_layer": "Recreation Centre", "name": "SOUTH FLETCHER'S SPORTSPLEX", "address": "500 RAY LAWSON BLVD", "type": "RECREATION CENTRE", "website": "http://www.brampton.ca/EN/residents/Recreation/Community-Centres/Pages/South-Fletchers.aspx", "role": "cooling_and_warming_centre" }, "geometry": { "type": "Point", "coordinates": [ -79.735843270872607, 43.652887998342898 ] } },
{ "type": "Feature", "properties": { "_source_layer": "Recreation Centre", "name": "MEMORIAL ARENA", "address": "69 ELLIOTT ST", "type": "ARENA", "website": "http://www.brampton.ca/EN/residents/Recreation/Community-Centres/Pages/Memorial-Arena.aspx", "role": "warming_centre" }, "geometry": { "type": "Point", "coordinates": [ -79.758779215041898, 43.6786893165823 ] } },
{ "type": "Feature", "properties": { "_source_layer": "Recreation Centre", "name": "FLOWER CITY COMMUNITY CAMPUS - SENIORS CENTRE", "address": "8870 MCLAUGHLIN RD S", "type": "SENIORS CENTRE", "website": "http://www.brampton.ca/EN/residents/Recreation/Community-Centres/Pages/FCSC.aspx", "role": "cooling_and_warming_centre" }, "geometry": { "type": "Point", "coordinates": [ -79.769366757900301, 43.671420664339202 ] } },
{ "type": "Feature", "properties": { "_source_layer": "Recreation Centre", "name": "ELLEN MITCHELL RECREATION CENTRE", "address": "922 NORTH PARK DR", "type": "RECREATION CENTRE", "website": "http://www.brampton.ca/EN/residents/Recreation/Community-Centres/Pages/Ellen-Mitchell.aspx", "role": "cooling_and_warming_centre" }, "geometry": { "type": "Point", "coordinates": [ -79.744887657762106, 43.733749718436897 ] } },
{ "type": "Feature", "properties": { "_source_layer": "Recreation Centre", "name": "CHINGUACOUSY WELLNESS CENTRE", "address": "995 PETER ROBERTSON BLVD", "type": "RECREATION CENTRE", "website": "http://www.brampton.ca/EN/residents/Recreation/Community-Centres/Pages/Chinguacousy-Wellness.aspx", "role": "cooling_and_warming_centre" }, "geometry": { "type": "Point", "coordinates": [ -79.742636988699402, 43.7491367006945 ] } },
{ "type": "Feature", "properties": { "_source_layer": "Recreation Centre", "name": "MOUNT PLEASANT COMMUNITY CENTRE", "address": "100 COMMUTER DR", "type": "COMMUNITY CENTRE", "website": "http://www.brampton.ca/EN/residents/Recreation/Community-Centres/Pages/Mount-Pleasant.aspx", "role": "cooling_and_warming_centre" }, "geometry": { "type": "Point", "coordinates": [ -79.8239473572592, 43.676807227478598 ] } },
{ "type": "Feature", "properties": { "_source_layer": "Recreation Centre", "name": "KNIGHTSBRIDGE COMMUNITY AND SENIOR CITIZENS CENTRE", "address": "1A KNIGHTSBRIDGE RD", "type": "COMMUNITY CENTRE", "website": "http://www.brampton.ca/EN/residents/Recreation/Community-Centres/Pages/Knightsbridge.aspx", "role": "cooling_and_warming_centre" }, "geometry": { "type": "Point", "coordinates": [ -79.717368486452102, 43.717426507191 ] } },
{ "type": "Feature", "properties": { "_source_layer": "Recreation Centre", "name": "NORTON PLACE PARK COMMUNITY CENTRE", "address": "170 CLARK BLVD", "type": "RECREATION CENTRE", "website": "http://www.brampton.ca/EN/residents/Recreation/Community-Centres", "role": "cooling_and_warming_centre" }, "geometry": { "type": "Point", "coordinates": [ -79.727697291610596, 43.707566908952899 ] } },
{ "type": "Feature", "properties": { "_source_layer": "Recreation Centre", "name": "KIWANIS YOUTH CENTRE FOR SPORTS EXCELLENCE", "address": "247 MCMURCHY AVE S", "type": "RECREATION CENTRE", "website": "https://www.bramptonkiwanis.com/", "role": "cooling_and_warming_centre" }, "geometry": { "type": "Point", "coordinates": [ -79.7489433537244, 43.667822491286998 ] } },
{ "type": "Feature", "properties": { "_source_layer": "Recreation Centre", "name": "PEEL VILLAGE GOLF COURSE", "address": "29A HARTFORD TRAIL", "type": "GOLF COURSE", "website": "http://www.brampton.ca/EN/residents/Recreation/Community-Centres/Pages/Peel-Village.aspx", "role": "cooling_and_warming_centre" }, "geometry": { "type": "Point", "coordinates": [ -79.723858092182994, 43.670386594227303 ] } },
{ "type": "Feature", "properties": { "_source_layer": "Recreation Centre", "name": "BRAMPTON CURLING CLUB", "address": "46 MCMURCHY AVE S", "type": "CURLING CLUB", "website": "https://bramptoncc.com/", "role": "cooling_and_warming_centre" }, "geometry": { "type": "Point", "coordinates": [ -79.759707526560504, 43.678000745074598 ] } },
{ "type": "Feature", "properties": { "_source_layer": "Recreation Centre", "name": "ELDORADO PARK AND OUTDOOR POOL", "address": "8520 CREDITVIEW RD", "type": "OUTDOOR POOL", "website": "http://www.brampton.ca/EN/residents/parks/eldorado-park/pages/welcome.aspx", "role": "cooling_and_warming_centre" }, "geometry": { "type": "Point", "coordinates": [ -79.780069371365599, 43.645420150318699 ] } },
{ "type": "Feature", "properties": { "_source_layer": "Recreation Centre", "name": "CHINGUACOUSY PARK SKI CHALET", "address": "9050 BRAMALEA RD", "type": "SKI CHALET", "website": "http://www.brampton.ca/EN/residents/Recreation/Chinguacousy-Park/Pages/Ching-MtChing.aspx", "role": "cooling_and_warming_centre" }, "geometry": { "type": "Point", "coordinates": [ -79.723641696487206, 43.727595238296097 ] } },
{ "type": "Feature", "properties": { "_source_layer": "Recreation Centre", "name": "CHINGUACOUSY PARK CURLING CLUB AND TENNIS CENTRE", "address": "9050 BRAMALEA RD", "type": "CURLING CLUB AND TENNIS CENTRE", "website": "http://www.brampton.ca/EN/residents/Recreation/Chinguacousy-Park", "role": "cooling_and_warming_centre" }, "geometry": { "type": "Point", "coordinates": [ -79.722137821848506, 43.725890299888199 ] } },
{ "type": "Feature", "properties": { "_source_layer": "Recreation Centre", "name": "COUNTY COURT FIELDHOUSE", "address": "95 COUNTY COURT BLVD", "type": "FIELDHOUSE", "website": "http://www.brampton.ca/EN/residents/Recreation/Community-Centres", "role": "cooling_and_warming_centre" }, "geometry": { "type": "Point", "coordinates": [ -79.721784120875597, 43.6633628590901 ] } },
{ "type": "Feature", "properties": { "_source_layer": "Recreation Centre", "name": "GORE BOCCE CLUB", "address": "9916 THE GORE RD", "type": "BOCCE CLUB", "website": "http://www.brampton.ca/EN/residents/Recreation/Community-Centres", "role": "cooling_and_warming_centre" }, "geometry": { "type": "Point", "coordinates": [ -79.687611260333597, 43.789443653045197 ] } },
{ "type": "Feature", "properties": { "_source_layer": "Recreation Centre", "name": "FLOWER CITY COMMUNITY CAMPUS - LAWN BOWLING", "address": "8910 MCLAUGHLIN RD S", "type": "LAWN BOWLING", "website": "http://www.brampton.ca/EN/residents/Recreation/Community-Centres/Pages/FCSC.aspx", "role": "cooling_and_warming_centre" }, "geometry": { "type": "Point", "coordinates": [ -79.770591274162399, 43.670798084695697 ] } },
{ "type": "Feature", "properties": { "_source_layer": "Recreation Centre", "name": "GAGE PARK", "address": "45 MAIN ST S", "type": "PARK", "website": "http://www.brampton.ca/EN/residents/Recreation/Programs-Activities/Pages/Outdoor-Skating.aspx", "role": "cooling_and_warming_centre" }, "geometry": { "type": "Point", "coordinates": [ -79.757850434713006, 43.683344742516503 ] } },
{ "type": "Feature", "properties": { "_source_layer": "Recreation Centre", "name": "CHINGUACOUSY PARK", "address": "9050 BRAMALEA RD", "type": "PARK", "website": "http://www.brampton.ca/EN/residents/Recreation/Chinguacousy-Park", "role": "cooling_and_warming_centre" }, "geometry": { "type": "Point", "coordinates": [ -79.720886383708901, 43.723571530554302 ] } },
{ "type": "Feature", "properties": { "_source_layer": "Recreation Centre", "name": "MOUNT PLEASANT OUTDOOR SKATING RINK", "address": "100 COMMUTER DR", "type": "OUTDOOR SKATING RINK", "website": "http://www.brampton.ca/EN/residents/Recreation/Programs-Activities/Pages/Outdoor-Skating.aspx", "role": "cooling_and_warming_centre" }, "geometry": { "type": "Point", "coordinates": [ -79.823426000019893, 43.675830792111 ] } },
{ "type": "Feature", "properties": { "_source_layer": "Library", "name": "FOUR CORNERS BRANCH", "address": "65 QUEEN ST E", "type": "LIBRARY BRANCH", "website": "", "role": "cooling_centre" }, "geometry": { "type": "Point", "coordinates": [ -79.757759469168704, 43.687497801043698 ] } },
{ "type": "Feature", "properties": { "_source_layer": "Library", "name": "MOUNT PLEASANT VILLAGE BRANCH", "address": "100 COMMUTER DR", "type": "LIBRARY BRANCH", "website": "", "role": "cooling_centre" }, "geometry": { "type": "Point", "coordinates": [ -79.823476379127598, 43.676607971103003 ] } },
{ "type": "Feature", "properties": { "_source_layer": "Library", "name": "GORE MEADOWS BRANCH", "address": "10150 THE GORE RD", "type": "LIBRARY BRANCH", "website": "", "role": "cooling_centre" }, "geometry": { "type": "Point", "coordinates": [ -79.6941064802634, 43.793884105863803 ] } },
{ "type": "Feature", "properties": { "_source_layer": "Library", "name": "CHINGUACOUSY BRANCH", "address": "150 CENTRAL PARK DR", "type": "LIBRARY BRANCH", "website": "", "role": "cooling_centre" }, "geometry": { "type": "Point", "coordinates": [ -79.718974934320201, 43.718224909562402 ] } },
{ "type": "Feature", "properties": { "_source_layer": "Library", "name": "CYRIL CLARK BRANCH", "address": "20 LOAFERS LAKE LANE", "type": "LIBRARY BRANCH", "website": "", "role": "cooling_centre" }, "geometry": { "type": "Point", "coordinates": [ -79.800122533151907, 43.725752690400199 ] } },
{ "type": "Feature", "properties": { "_source_layer": "Library", "name": "NORTHEAST INTERIM SITE", "address": "24-55 MOUNTAINASH RD", "type": "LIBRARY BRANCH", "website": "", "role": "cooling_centre" }, "geometry": { "type": "Point", "coordinates": [ -79.7281150982176, 43.760784913231603 ] } },
{ "type": "Feature", "properties": { "_source_layer": "Library", "name": "SOUTH FLETCHER'S BRANCH", "address": "500 RAY LAWSON BLVD", "type": "LIBRARY BRANCH", "website": "", "role": "cooling_centre" }, "geometry": { "type": "Point", "coordinates": [ -79.736444447080203, 43.6521703670007 ] } }
]
}
